CP,city,Province,Region,cases,pop,superf,lat,long,Incidence_rate,Density
11001,Aartselaar,Antwerpen,Flanders,2109,14455,11.018954505832,51.133297,4.3870241,0.145901072293324,1311.83044565157
11002,Antwerpen,Antwerpen,Flanders,85540,529417,204.316549815777,51.2211097,4.3997081,0.16157395776864,2591.1606302933
11004,Boechout,Antwerpen,Flanders,1928,13527,20.707981822595,51.1596941,4.51040686515,0.142529755304206,653.226379851288
11005,Boom,Antwerpen,Flanders,2840,18799,7.3816165954462,51.0873789,4.3667216,0.151071865524762,2546.73210900676
11007,Borsbeek,Antwerpen,Flanders,1690,11077,3.901306298244,51.1928907,4.488953,0.152568384941771,2839.30538983464
11008,Brasschaat,Antwerpen,Flanders,4849,38211,38.579984464381,51.2930933,4.489307,0.126900630708435,990.435857621413
11009,Brecht,Antwerpen,Flanders,4137,29809,91.46440799025,51.3347679,4.597238179,0.138783588849005,325.908193744365
11013,Edegem,Antwerpen,Flanders,3059,22244,8.717406926576,51.1574786,4.4384284,0.137520230174429,2551.67622520714
11016,Essen,Antwerpen,Flanders,2571,19196,47.569794262882,51.4677957,4.4701309,0.133934152948531,403.533382842027
11018,Hemiksem,Antwerpen,Flanders,1791,11722,5.4804405898721,51.1442105,4.3420555,0.152789626343627,2138.87912983901
11021,Hove (Antwerpen),Antwerpen,Flanders,1002,8287,6.017998040453,51.1486117,4.477387,0.120912272233619,1377.03600836936
11022,Kalmthout,Antwerpen,Flanders,2418,19020,59.409144712723,51.3832723,4.4763255,0.127129337539432,320.152732243033
11023,Kapellen (Antwerpen),Antwerpen,Flanders,3547,27157,37.222621721063,50.88734525,4.96087761898,0.130610892219317,729.583214301984
11024,Kontich,Antwerpen,Flanders,2748,21260,23.800522686732,51.134377,4.4456359,0.129256820319849,893.257693531737
11025,Lint,Antwerpen,Flanders,1128,8575,5.650633432317,51.1268305,4.4922187,0.131545189504373,1517.52898196475
11029,Mortsel,Antwerpen,Flanders,3698,26170,7.7842256064782,51.1741789,4.4593335,0.141306839893007,3361.9272260327
11030,Niel,Antwerpen,Flanders,1626,10493,5.34641286289,51.1098649,4.3303396,0.154960449823692,1962.62433693308
11035,Ranst,Antwerpen,Flanders,2521,19249,43.673209446898,51.1961732,4.5637563614,0.130967842485324,440.750754152949
11037,Rumst,Antwerpen,Flanders,2217,15146,20.150385648659,51.0792853,4.4240472,0.146375280602139,751.648145305247
11038,Schelle,Antwerpen,Flanders,1245,8559,7.8255356048485,51.1245635,4.3361875,0.145460918331581,1093.72705360858
11039,Schilde,Antwerpen,Flanders,2731,19925,36.089228514398,51.257095,4.59551573599,0.137063989962359,552.103794406434
11040,Schoten,Antwerpen,Flanders,4399,34291,29.510232703924,51.2516344,4.4980446,0.128284389489954,1162.00371389956
11044,Stabroek,Antwerpen,Flanders,2374,18680,21.422190501412,51.33518735,4.37031201604,0.127087794432548,871.992992442521
11050,Wijnegem,Antwerpen,Flanders,1511,10084,7.88358259961,51.2270761,4.5225318,0.149841332804443,1279.11388922326
11052,Wommelgem,Antwerpen,Flanders,1952,12991,12.993627155788,51.2031044,4.5238022,0.150257870833654,999.797811976864
11053,Wuustwezel,Antwerpen,Flanders,3215,21346,89.410893981816,51.38525,4.56517434504,0.150613698116743,238.740482835808
11054,Zandhoven,Antwerpen,Flanders,1790,13124,40.099115761015,51.2147918,4.6595103,0.136391344102408,327.289012511327
11055,Zoersel,Antwerpen,Flanders,3209,22142,38.684347893727,51.2716725,4.7132557,0.144928190768675,572.376198787896
11056,Zwijndrecht,Antwerpen,Flanders,2717,19263,20.244947141932,51.23062085,4.31886932822,0.141047604215335,951.496680379167
11057,Malle,Antwerpen,Flanders,2342,15620,51.901688370661,51.3001124,4.7149828,0.149935979513444,300.953600747017
12002,Berlaar,Antwerpen,Flanders,1459,11710,24.525873043237,51.10303735,4.66403876346,0.124594363791631,477.454970893647
12005,Bonheiden,Antwerpen,Flanders,1857,15177,29.192521177825,51.0261294,4.53782177791,0.122356196876853,519.893431182252
12007,Bornem,Antwerpen,Flanders,2834,21428,46.186921631761,51.0924649,4.24232600515,0.132256860182938,463.940856912723
12009,Duffel,Antwerpen,Flanders,2452,17714,22.598279151579,51.0957176,4.5061988,0.138421587444959,783.864996143402
12014,Heist-op-den-Berg,Antwerpen,Flanders,5942,43096,86.672250803275,51.06251415,4.71937655344,0.137878225357342,497.22950079856
12021,Lier,Antwerpen,Flanders,5236,36923,49.8530886873666,51.131069,4.5696516,0.141808628767977,740.636156598994
12025,Mechelen,Antwerpen,Flanders,12556,86911,65.7871329811296,51.02803335,4.4713212,0.144469629851227,1321.09420279691
12026,Nijlen,Antwerpen,Flanders,3177,22985,39.195352032074,51.1611887,4.6709517317,0.138220578638242,586.421573180185
12029,Putte,Antwerpen,Flanders,2324,18109,35.158163975395,51.0570823,4.6310473,0.128333977580209,515.072402889791
12035,Sint-Katelijne-Waver,Antwerpen,Flanders,2815,21197,36.155495879867,51.06232435,4.51142781401,0.13280181157711,586.273247929741
12040,Willebroek,Antwerpen,Flanders,4099,27081,27.3657459976991,51.0626964,4.3572324644,0.151360732616964,989.594802285929
12041,Puurs-Sint-Amands,Antwerpen,Flanders,3692,26208,49.1387938209226,51.07199845,4.28619286788,0.140873015873016,533.34642473135
13001,Arendonk,Antwerpen,Flanders,2516,13207,55.151578866548,51.3202315,5.0864557,0.190505035208601,239.467305767572
13002,Baarle-Hertog,Antwerpen,Flanders,396,2935,7.414231601731,51.4127504314,4.90040517109,0.134923339011925,395.86030726566
13003,Balen,Antwerpen,Flanders,3395,22853,72.987052046916,51.171804,5.1937730761,0.148558176169431,313.110330655773
13004,Beerse,Antwerpen,Flanders,3252,18194,37.35974277032,51.3134921,4.83757045231,0.178740244036496,486.994787727875
13006,Dessel,Antwerpen,Flanders,1594,9659,27.446138305207,51.2395713,5.113243,0.165027435552335,351.925647702778
13008,Geel,Antwerpen,Flanders,6486,40781,110.19717256662,51.1610826,4.9903187,0.159044653147299,370.073015941908
13010,Grobbendonk,Antwerpen,Flanders,1367,11249,28.368580763336,51.18870335,4.7318844302,0.121521913058939,396.530235116252
13011,Herentals,Antwerpen,Flanders,3958,28194,47.947496429945,51.1855514,4.83464460985,0.140384478967156,588.018188628339
13012,Herenthout,Antwerpen,Flanders,1353,9185,23.607913703273,51.1392427,4.7543972,0.147305389221557,389.06445166845
13013,Herselt,Antwerpen,Flanders,1748,14649,52.371906650555,51.0554081,4.90180800314,0.119325551232166,279.711030910973
13014,Hoogstraten,Antwerpen,Flanders,3902,21560,105.394704312719,51.39574085,4.74406564142,0.180983302411874,204.564357769142
13016,Hulshout,Antwerpen,Flanders,1364,10553,17.378648795747,51.0753923,4.7885461,0.129252345304653,607.23938460524
13017,Kasterlee,Antwerpen,Flanders,3147,19052,72.269808034332,51.2407915,4.967812,0.165179508712996,263.623226879879
13019,Lille,Antwerpen,Flanders,2479,16517,59.619262888689,51.238218,4.8242404,0.150087788339287,277.041331940614
13021,Meerhout,Antwerpen,Flanders,1497,10279,36.539314194448004,51.1317433,5.0772388,0.145636735090962,281.313435312419
13023,Merksplas,Antwerpen,Flanders,1567,8616,44.6059946395437,51.3580597,4.8627541,0.181870937790158,193.15789435086
13025,Mol,Antwerpen,Flanders,5632,37021,114.545494517251,51.1840421,5.1155267,0.152129872234678,323.199093565609
13029,Olen,Antwerpen,Flanders,2058,12600,23.123925561258,51.1438611,4.8597257,0.163333333333333,544.890181670111
13031,Oud-Turnhout,Antwerpen,Flanders,2200,14201,39.169415525824,51.3178319,4.9817086,0.154918667699458,362.553278096208
13035,Ravels,Antwerpen,Flanders,2106,15104,95.134318106708,51.3808625,5.01981229195,0.139433262711864,158.764999850617
13036,Retie,Antwerpen,Flanders,1943,11582,48.499438381791,51.2675862,5.0843883,0.167760317734415,238.806889037058
13037,Rijkevorsel,Antwerpen,Flanders,2253,12262,46.837742706115,51.3495046,4.760708,0.183738378731039,261.797415749481
13040,Turnhout,Antwerpen,Flanders,7140,45874,56.7115681054691,51.3233812,4.948461,0.155643719754109,808.900221462507
13044,Vorselaar,Antwerpen,Flanders,916,7995,27.623409313146,51.2023448,4.769482,0.114571607254534,289.428430407219
13046,Vosselaar,Antwerpen,Flanders,1768,11443,11.832710720794,51.3129153,4.8878026,0.154504937516386,967.06496676969
13049,Westerlo,Antwerpen,Flanders,3590,25288,55.468680937188,51.086694,4.9168675,0.141964568174628,455.896905654486
13053,Laakdal,Antwerpen,Flanders,2291,16293,42.426613765645,51.0802695,5.0073022,0.140612532989627,384.02782013193
21001,Anderlecht,Brussels,Brussels,23021,121929,17.9141015867607,50.8381411,4.3123401,0.188806600562623,6806.31397614217
21002,Oudergem,Brussels,Brussels,5884,34723,8.9657498712969,50.8156571,4.4331389,0.169455404198946,3872.84951046457
21003,Sint-Agatha-Berchem,Brussels,Brussels,4880,25441,2.9500832274662,50.8639835,4.292702,0.191816359419834,8623.82449523332
21004,Brussel,Brussels,Brussels,33757,186916,33.0864107912637,50.8465573,4.351697,0.180599841640095,5649.32839585472
21005,Etterbeek,Brussels,Brussels,8538,48331,3.1742184771502,50.8368511,4.3895104,0.176656804121578,15226.1100954183
21006,Evere,Brussels,Brussels,7961,43061,5.124787324595,50.8704524,4.4021602,0.184877267132672,8402.49502517707
21007,Vorst (Brussel-Hoofdstad),Brussels,Brussels,10929,56281,6.2920526599439,50.6736151,3.5373149,0.194186315097457,8944.77574199161
21008,Ganshoren,Brussels,Brussels,4741,25189,2.4376673675815,50.8712396,4.3175103,0.18821707888364,10333.239200306
21009,Elsene,Brussels,Brussels,15421,87488,6.411172519867,50.8222854,4.3815707,0.176264173372348,13646.1777824402
21010,Jette,Brussels,Brussels,9791,52854,5.1893270490261,50.8777634,4.3260903,0.185246149771067,10185.135664155
21011,Koekelberg,Brussels,Brussels,4074,21873,1.1819269096759,50.8622633,4.3257084,0.1862570292141,18506.2204954771
21012,Sint-Jans-Molenbeek,Brussels,Brussels,19609,98112,6.0156295136362,50.8543551,4.3227779,0.199863421395956,16309.5150353924
21013,Sint-Gillis,Brussels,Brussels,9544,49196,2.5338058337379,50.8267409,4.345668,0.19399951215546,19415.8523691713
21014,Sint-Joost-ten-Node,Brussels,Brussels,5123,27124,1.1606086156866,50.8530739,4.3723364,0.188873322518803,23370.4968525964
21015,Schaarbeek,Brussels,Brussels,25561,131451,7.9013006727113,50.8676041,4.3737121,0.194452685791664,16636.6279989815
21016,Ukkel,Brussels,Brussels,15014,84774,22.8748413419669,50.8018201,4.3372348,0.177106188218086,3705.99291740096
21017,Watermaal-Bosvoorde,Brussels,Brussels,4480,25221,12.9680349121188,50.799394,4.4158177,0.177629752983625,1944.85904540792
21018,Sint-Lambrechts-Woluwe,Brussels,Brussels,9739,58010,7.2935525864945,50.8466928,4.4284842,0.167884847440097,7953.60002029976
21019,Sint-Pieters-Woluwe,Brussels,Brussels,6829,41996,8.9443053640161,50.8292429,4.4432967,0.162610724830936,4695.27797753355
23002,Asse,VlaamsBrabant,Flanders,5621,33827,50.2213608004588,50.913594,4.18043750728,0.166169036568422,673.558013180937
23003,Beersel,VlaamsBrabant,Flanders,4159,25756,30.401351517823,50.7684432,4.30513214946,0.161476937412642,847.199177474079
23009,Bever,VlaamsBrabant,Flanders,258,2201,19.235931058969,50.7164481,3.943147,0.117219445706497,114.421287602492
23016,Dilbeek,VlaamsBrabant,Flanders,7454,43732,41.4771172537757,50.84408625,4.26572996676,0.170447269733833,1054.36450012733
23023,Galmaarden,VlaamsBrabant,Flanders,1256,8814,35.288886937315,50.7527192,3.9709983,0.142500567279328,249.767016331704
23024,Gooik,VlaamsBrabant,Flanders,1399,9230,40.214028277142,50.7979738,4.10298406745,0.151570964247021,229.521895602943
23025,Grimbergen,VlaamsBrabant,Flanders,6351,38314,38.6696956670128,50.95030565,4.40137326265,0.165761862504568,990.801694689409
23027,Halle (Halle-Vilvoorde),VlaamsBrabant,Flanders,6230,40656,44.9820172120825,50.7360524,4.2374349,0.153236914600551,903.827852101739
23032,Herne,VlaamsBrabant,Flanders,962,6706,44.661867311489,50.72329555,4.02601156635,0.143453623620638,150.150461762599
23033,Hoeilaart,VlaamsBrabant,Flanders,1914,11509,20.534199984693,50.7674846,4.474407,0.166304631158224,560.479590564973
23038,Kampenhout,VlaamsBrabant,Flanders,1470,12280,33.647629830684,50.94924405,4.57116308737,0.119706840390879,364.958841433806
23039,Kapelle-op-den-Bos,VlaamsBrabant,Flanders,1426,9524,15.3670871042552,51.0131904,4.3599725,0.149727005459891,619.76612323377606
23044,Liedekerke,VlaamsBrabant,Flanders,2167,13482,10.174660007176,50.8711313,4.0860754,0.160732828957128,1325.05656115206
23045,Londerzeel,VlaamsBrabant,Flanders,2540,19016,36.526346743767,51.0122466,4.29907294163,0.133571729070257,520.610509816314
23047,Machelen (Halle-Vilvoorde),VlaamsBrabant,Flanders,3268,15895,11.4954487529104,50.9591856,3.4858873,0.205599245045612,1382.72113961412
23050,Meise,VlaamsBrabant,Flanders,2955,19790,35.0652804672153,50.9341625,4.3287322,0.149317837291561,564.375922174725
23052,Merchtem,VlaamsBrabant,Flanders,2650,17154,36.902119603371,50.9591981,4.2327769,0.1544829194357,464.851346870411
23060,Opwijk,VlaamsBrabant,Flanders,2273,14793,19.919282327605,50.9690529,4.1896665,0.153653755154465,742.64723782238
23062,Overijse,VlaamsBrabant,Flanders,4072,25655,44.9875247806387,50.7729254,4.5385226,0.158721496784253,570.269205187327
23064,Pepingen,VlaamsBrabant,Flanders,650,4499,35.9282480661466,50.7511702,4.17858828914,0.144476550344521,125.22180295897
23077,Sint-Pieters-Leeuw,VlaamsBrabant,Flanders,6293,35061,40.6683658458034,50.78118355,4.24521861731,0.179487179487179,862.119715676207
23081,Steenokkerzeel,VlaamsBrabant,Flanders,1807,12372,23.628206087189,50.9093488,4.5110471,0.146055609440672,523.611481732758
23086,Ternat,VlaamsBrabant,Flanders,2698,16144,24.710018023387,50.87155835,4.18341714012,0.167120911793855,653.338252716788
23088,Vilvoorde,VlaamsBrabant,Flanders,8503,45715,21.5732886633191,50.92813655,4.43290525148,0.186000218746582,2119.05568564189
23094,Zaventem,VlaamsBrabant,Flanders,5545,35184,27.7253605127671,50.8804355,4.4745515,0.157600045475216,1269.01866555706
23096,Zemst,VlaamsBrabant,Flanders,3172,23314,43.2285669600438,50.9865028,4.44412333945,0.136055588916531,539.319289060615
23097,Roosdaal,VlaamsBrabant,Flanders,1849,11688,21.918904511234,50.8341383,4.0972238,0.158196440793977,533.238328311965
23098,Drogenbos,VlaamsBrabant,Flanders,1067,5699,2.495981770571,50.786532,4.3173542,0.187225829092823,2283.2698808919
23099,Kraainem,VlaamsBrabant,Flanders,2372,13847,5.8363371522159,50.8606105,4.4691371,0.171300642738499,2372.54970692409
23100,Linkebeek,VlaamsBrabant,Flanders,870,4739,4.1890768396861,50.7716092,4.3345641,0.183583034395442,1131.27550087028
23101,Sint-Genesius-Rode,VlaamsBrabant,Flanders,3292,18626,22.750499095495,50.74503,4.3463687,0.176742188338881,818.707313708484
23102,Wemmel,VlaamsBrabant,Flanders,3214,17013,8.773061109208,50.9145955,4.3108723,0.188914359607359,1939.23190414615
23103,Wezembeek-Oppem,VlaamsBrabant,Flanders,2573,14254,6.863912888266,50.8440554,4.4871796,0.180510733829101,2076.65805671391
23104,Lennik,VlaamsBrabant,Flanders,1508,9190,31.123793135019,50.8085632,4.1648626,0.164091403699674,295.272493302234
23105,Affligem,VlaamsBrabant,Flanders,2137,13407,17.921883355588,50.9035063,4.1174675,0.15939434623704,748.07986046956
24001,Aarschot,VlaamsBrabant,Flanders,3417,30281,63.0403739159625,50.9841594,4.8245687,0.112843036887817,480.342963072631
24007,Begijnendijk,VlaamsBrabant,Flanders,1169,10322,17.655669347828,51.02422075,4.7826403117,0.113253245495059,584.628075925641
24008,Bekkevoort,VlaamsBrabant,Flanders,733,6348,37.280511956634,50.9338977,4.98461697152,0.115469439193447,170.276631591975
24009,Bertem,VlaamsBrabant,Flanders,1257,10190,29.990146132397,50.8706469,4.6322907,0.123356231599607,339.778271003228
24011,Bierbeek,VlaamsBrabant,Flanders,996,10194,38.964842789533,50.8241245,4.7714318076,0.0977045320776928,261.620457576654
24014,Boortmeerbeek,VlaamsBrabant,Flanders,1337,12711,18.772066725199,50.97828585,4.575800525,0.105184485878373,677.123099234309
24016,Boutersem,VlaamsBrabant,Flanders,991,8249,31.140066673513,50.8473461,4.83361780526,0.120135774033216,264.899882408293
24020,Diest,VlaamsBrabant,Flanders,2908,24370,58.7173810759229,50.98456645,5.05287349625,0.119327041444399,415.038946789691
24028,Geetbets,VlaamsBrabant,Flanders,821,6188,35.51709012368,50.89519195,5.10158100294,0.13267614738203,174.225984686576
24033,Haacht,VlaamsBrabant,Flanders,1677,15080,30.737371101318,50.9769286,4.6386824,0.111206896551724,490.607994753116
24038,Herent,VlaamsBrabant,Flanders,2432,22046,32.735266083483,50.9079329,4.672714,0.110314796334936,673.463290134171
24041,Hoegaarden,VlaamsBrabant,Flanders,769,6843,34.127625752933,50.7877912,4.88114193614,0.11237761215841,200.512044099988
24043,Holsbeek,VlaamsBrabant,Flanders,1165,10148,38.777571427704,50.92172015,4.75572967177,0.114800945999212,261.697667656153
24045,Huldenberg,VlaamsBrabant,Flanders,1261,9981,39.945407661515,50.7950895,4.58285874,0.126340046087566,249.86601925748
24048,Keerbergen,VlaamsBrabant,Flanders,1547,13073,18.54254777306,51.0049242,4.6265551,0.118335500650195,705.027171023037
24054,Kortenaken,VlaamsBrabant,Flanders,960,7898,49.436888036005,50.90566935,5.06839249573,0.121549759432768,159.759246865374
24055,Kortenberg,VlaamsBrabant,Flanders,2700,20425,34.702681425443,50.88326665,4.53647070396,0.13219094247246,588.571233144681
24059,Landen,VlaamsBrabant,Flanders,2229,16051,53.30140067744,50.7493167,5.07909661187,0.138869852345648,301.136551685285
24062,Leuven,VlaamsBrabant,Flanders,11155,101032,57.5082466335121,50.8812533,4.69299032152,0.110410562989944,1756.82629734576
24066,Lubbeek,VlaamsBrabant,Flanders,1702,14728,45.280540585455,50.8821122,4.84005994064,0.115562194459533,325.2611344647
24086,Oud-Heverlee,VlaamsBrabant,Flanders,1207,11209,31.18240008776,50.8217682,4.6678971,0.107681327504684,359.465594965535
24094,Rotselaar,VlaamsBrabant,Flanders,2102,17081,37.220635555205,50.9543637,4.71432059603,0.123060710731222,458.912099302167
24104,Tervuren,VlaamsBrabant,Flanders,3104,22861,33.619523189358,50.8227718,4.5144027,0.135777087616465,679.991797362447
24107,Tienen,VlaamsBrabant,Flanders,4287,35545,72.771107098044,50.80843175,4.94642921343,0.12060768040512,488.449350538401
24109,Tremelo,VlaamsBrabant,Flanders,1711,15008,21.890473360528,50.9900457,4.6755134,0.114005863539446,685.595041862448
24130,Zoutleeuw,VlaamsBrabant,Flanders,1133,8531,46.844325249042,50.8415653,5.11864474801,0.132809752666745,182.113840996663
24133,Linter,VlaamsBrabant,Flanders,729,7253,36.870551729176,50.8291537,5.0409717,0.100510133737764,196.71525539610101
24134,Scherpenheuvel-Zichem,VlaamsBrabant,Flanders,2848,23135,51.151022546819,50.9689147,4.97543256577,0.123103522800951,452.288123445124
24135,Tielt-Winge,VlaamsBrabant,Flanders,1132,10877,44.522754357919,50.9242724,4.88637818158,0.104072814195091,244.302046377447
24137,Glabbeek,VlaamsBrabant,Flanders,637,5340,26.991241035175,50.8725203,4.9513009,0.119288389513109,197.841958917002
25005,Bevekom,BrabantWallon,Wallonia,1276,7190,38.5688143826747,50.7810287,4.7716774,0.177468706536857,186.420042074972
25014,Eigenbrakel,BrabantWallon,Wallonia,6384,40093,52.3213237567036,50.6940942,4.35481454403,0.159229790736538,766.284128942038
25015,Kasteelbrakel,BrabantWallon,Wallonia,1827,10532,22.749121430633,50.68088165,4.26666907261,0.173471325484239,462.962933848428
25018,Chaumont-Gistoux,BrabantWallon,Wallonia,2129,11630,48.325509685042,50.6839808,4.6974182,0.183061049011178,240.659644891439
25023,Court-Saint-Etienne,BrabantWallon,Wallonia,1962,10599,26.8754124931218,50.6443208,4.5685766,0.185111803000283,394.375342246843
25031,Genepiën,BrabantWallon,Wallonia,2921,15632,90.3496070115093,50.60800575,4.44794598517,0.186860286591607,173.016801257461
25037,Graven,BrabantWallon,Wallonia,2761,13984,55.553631825913,50.7386182,4.6962324,0.197439931350114,251.720716366867
25043,Incourt,BrabantWallon,Wallonia,1209,5521,38.907959244703,50.6918004,4.798944,0.218982068465858,141.898986921336
25044,Itter,BrabantWallon,Wallonia,1296,7021,35.0273454660247,50.6463367,4.26116756413,0.184589089873237,200.443393771022
25048,Geldenaken,BrabantWallon,Wallonia,2592,14309,73.731844748409,50.7218206,4.8709616,0.181144734083444,194.068113293866
25050,Terhulpen,BrabantWallon,Wallonia,1280,7441,15.516590322632,50.7315053,4.4796542,0.172019889799758,479.551231635393
25068,Mont-Saint-Guibert,BrabantWallon,Wallonia,1632,7940,18.7244727185316,50.6365628,4.6127019,0.205541561712846,424.043983473125
25072,Nijvel,BrabantWallon,Wallonia,4819,29032,60.832197612085,50.58916295,4.33190917586,0.165989253237807,477.247266079903
25084,Perwijs (Nijvel),BrabantWallon,Wallonia,1877,9449,51.169893803566,50.6234469,4.8134719,0.19864535929728,184.659363106622
25091,Rixensart,BrabantWallon,Wallonia,4224,22764,17.560352219035,50.7133548,4.5272896887,0.185556141275698,1296.32935126007
25105,Tubeke,BrabantWallon,Wallonia,4701,27338,32.771429858998,50.69302,4.204696,0.171958446118955,834.202234007615
25107,Villers-la-Ville,BrabantWallon,Wallonia,2155,10891,48.030473568737,50.5640258,4.51603580146,0.197869800752915,226.75187627317
25110,Waterloo,BrabantWallon,Wallonia,4850,30379,21.3241857817692,50.7173563,4.3978047,0.159649758056552,1424.62649270164
25112,Waver,BrabantWallon,Wallonia,6138,34826,42.1131962094458,50.7164189,4.607744,0.176247631080227,826.9616921688
25117,Chastre,BrabantWallon,Wallonia,1525,7726,31.5697007989289,50.6080835,4.636678,0.19738545172146,244.728325086379
25118,Hélécine,BrabantWallon,Wallonia,586,3648,16.98234886845,50.7514034,4.9822395,0.160635964912281,214.811274238824
25119,Lasne,BrabantWallon,Wallonia,2853,14271,47.57009030644,50.6860037,4.4844157,0.199915913390793,299.999430483907
25120,Orp-Jauche,BrabantWallon,Wallonia,1532,9001,50.7978672570466,50.7001001,4.9889872,0.170203310743251,177.192478464761
25121,Ottignies-Louvain-la-Neuve,BrabantWallon,Wallonia,5697,31158,33.4004640219562,50.6726725,4.58049377013,0.182842287694974,932.861291373614
25122,Ramillies,BrabantWallon,Wallonia,1355,6592,49.0772398494188,50.6366892,4.9148994,0.205552184466019,134.318882240034
25123,Rebecq,BrabantWallon,Wallonia,1504,10982,39.260396291302,50.6645894,4.1355466,0.136951374977235,279.722087329848
25124,Walhain,BrabantWallon,Wallonia,1575,7448,38.080806472599,50.6182838,4.6952724,0.211466165413534,195.584093140443
31003,Beernem,WestVlaanderen,Flanders,2283,15845,72.422077596684,51.12774395,3.31447325976,0.14408330703692,218.786874469968
31004,Blankenberge,WestVlaanderen,Flanders,2402,20479,19.0182604797681,51.31651475,3.12975780351,0.117290883343913,1076.80720967019
31005,Brugge,WestVlaanderen,Flanders,16246,118467,140.987746166533,51.2147083,3.2073611,0.137135235972887,840.26451391079
31006,Damme,WestVlaanderen,Flanders,1459,10973,90.3549944752974,51.2553021,3.29209111308,0.132962726692791,121.443203706907
31012,Jabbeke,WestVlaanderen,Flanders,2271,14081,53.86064843915,51.1846386,3.09029538894,0.161281159008593,261.433911548767
31022,Oostkamp,WestVlaanderen,Flanders,3502,23832,80.126237752338,51.1511469,3.24971372627,0.146945283652232,297.430662770693
31033,Torhout,WestVlaanderen,Flanders,3875,20490,45.324956063494,51.0585915,3.09130720455,0.189116642264519,452.068833145615
31040,Zedelgem,WestVlaanderen,Flanders,3832,22901,60.659560227526,51.1355326,3.14044732794,0.167328937600978,377.533234894902
31042,Zuienkerke,WestVlaanderen,Flanders,345,2750,48.8969123552409,51.2685834,3.15674060943,0.125454545454545,56.2407699697064
31043,Knokke-Heist,WestVlaanderen,Flanders,3949,33086,61.593114350525,51.3396066,3.2702133,0.119355618690685,537.170434534424
32003,Diksmuide,WestVlaanderen,Flanders,3026,16815,150.736383883972,51.0333408,2.8647185,0.179958370502527,111.552364245007
32006,Houthulst,WestVlaanderen,Flanders,2055,10214,56.020966801612,50.97407785,2.94381105082,0.201194439005287,182.324593507481
32010,Koekelare,WestVlaanderen,Flanders,1708,8745,39.4391627143028,51.0911765,2.9682187345,0.195311606632361,221.733916192612
32011,Kortemark,WestVlaanderen,Flanders,2426,12743,55.4315311770872,51.0285109,3.0441178,0.190379031625206,229.887209128139
32030,Lo-Reninge,WestVlaanderen,Flanders,567,3257,63.3972087492921,50.9638066,2.7643391,0.174086582744857,51.37450156331
33011,Ieper,WestVlaanderen,Flanders,5576,34954,131.455457975918,50.851808,2.89147745121,0.159523945757281,265.899952259141
33016,Mesen,WestVlaanderen,Flanders,153,1051,3.596311309881,50.7596526,2.90012142343,0.145575642245481,292.243888095098
33021,Poperinge,WestVlaanderen,Flanders,3214,19686,120.371424082897,50.84362245,2.72225926388,0.163263232754242,163.543799119986
33029,Wervik,WestVlaanderen,Flanders,3418,18864,43.7681187705,50.79981455,3.042988233,0.181191687871077,430.998647643829
33037,Zonnebeke,WestVlaanderen,Flanders,2151,12511,68.091686208895,50.8731885,2.9874678,0.171928702741587,183.737555883374
33039,Heuvelland,WestVlaanderen,Flanders,1377,7897,94.790066025228,50.76764855,2.84574591104,0.17437001392934,83.3104177593699
33040,Langemark-Poelkapelle,WestVlaanderen,Flanders,1475,7843,53.067164589714,50.9122567,2.9338635,0.188065791151345,147.793839385197
33041,Vleteren,WestVlaanderen,Flanders,543,3649,38.575422063243,50.930143,2.7289867,0.148807892573308,94.5939099257967
34002,Anzegem,WestVlaanderen,Flanders,2970,14845,42.353450928462,50.844003,3.46373455211,0.2000673627484,350.502725859913
34003,Avelgem,WestVlaanderen,Flanders,1753,10249,22.11849615909,50.7754997,3.44689853137,0.171041077178261,463.367849526605
34009,Deerlijk,WestVlaanderen,Flanders,2577,12182,16.973343440407,50.83878495,3.36227902291,0.211541618781809,717.713633897217
34013,Harelbeke,WestVlaanderen,Flanders,4746,28614,29.398319561438,50.8293249,3.3425511,0.165862864332145,973.320938980921
34022,Kortrijk,WestVlaanderen,Flanders,12622,77213,80.693695873209,50.81788085,3.27841539037,0.163469882014687,956.865330859574
34023,Kuurne,WestVlaanderen,Flanders,2171,13794,10.111781465349,50.86005145,3.27363221506,0.157387269827461,1364.1513166863
34025,Lendelede,WestVlaanderen,Flanders,1015,5766,13.269100074993,50.8850661,3.23201346582,0.176031911203607,434.543410435695
34027,Menen,WestVlaanderen,Flanders,6887,33708,33.1630410698939,50.7969879,3.1156565,0.204313516079269,1016.4327188498
34040,Waregem,WestVlaanderen,Flanders,7616,38535,44.499816908012,50.87620025,3.42573804001,0.19763851044505,865.958619103036
34041,Wevelgem,WestVlaanderen,Flanders,6207,31503,39.1378056514266,50.8121065,3.18644500627,0.19702885439482,804.925045634277
34042,Zwevegem,WestVlaanderen,Flanders,4266,24853,63.6095843172185,50.80406995,3.34190674263,0.171649297871484,390.71156126503
34043,Spiere-Helkijn,WestVlaanderen,Flanders,370,2076,10.815793059426,50.72568025,3.34652646528,0.178227360308285,191.941542205336
35002,Bredene,WestVlaanderen,Flanders,2429,18086,14.251820931304,51.23890495,2.97257694683,0.134302775627557,1269.0308197933
35005,Gistel,WestVlaanderen,Flanders,1818,12107,42.8403914262722,51.1582502,2.96708109482,0.150161063847361,282.607128388077
35006,Ichtegem,WestVlaanderen,Flanders,2437,14068,45.7780711341949,51.08742745,3.02962221299,0.173230025589991,307.308710294078
35011,Middelkerke,WestVlaanderen,Flanders,2582,19676,79.0386185805649,51.18331695,2.80634012255,0.131225858914413,248.94159783352
35013,Oostende,WestVlaanderen,Flanders,10104,71755,40.9544757382511,51.2303177,2.9203275,0.140812486934708,1752.06735543636
35014,Oudenburg,WestVlaanderen,Flanders,1377,9672,35.5990506372441,51.20118315,3.00610895202,0.142369727047146,271.692638620004
35029,De Haan,WestVlaanderen,Flanders,1502,12789,46.1424737219661,51.2415107,3.0049248,0.117444679021034,277.163293781361
36006,Hooglede,WestVlaanderen,Flanders,2177,9925,38.108538627819,50.98218015,3.06872158496,0.219345088161209,260.440320132213
36007,Ingelmunster,WestVlaanderen,Flanders,2180,11189,16.426804536816,50.92196635,3.26171897393,0.19483421217267,681.142822082228
36008,Izegem,WestVlaanderen,Flanders,5521,28554,25.6347868697939,50.91382225,3.20906542106,0.193352945296631,1113.87701973235
36010,Ledegem,WestVlaanderen,Flanders,2040,9715,24.832061214813,50.86898195,3.11765987834,0.209984559958827,391.228094839132
36011,Lichtervelde,WestVlaanderen,Flanders,1695,8962,26.157771728344,51.03033065,3.14227177153,0.18913189020308,342.613281172149
36012,Moorslede,WestVlaanderen,Flanders,2291,11445,35.447281215327,50.89006565,3.07320759726,0.200174748798602,322.873845541963
36015,Roeselare,WestVlaanderen,Flanders,12490,63763,60.3963906003966,50.9444948,3.124765,0.195881624139391,1055.74189725803
36019,Staden,WestVlaanderen,Flanders,2623,11462,46.814739386303,50.97048785,3.00134062319,0.228843133833537,244.837419801028
37002,Dentergem,WestVlaanderen,Flanders,1738,8644,26.089472876172,50.966125,3.40229371733,0.201064322073114,331.321373989688
37007,Meulebeke,WestVlaanderen,Flanders,2191,10885,29.490336033127,50.9484788,3.28596057612,0.201286173633441,369.103966389962
37010,Oostrozebeke,WestVlaanderen,Flanders,1658,7943,16.723229767291,50.93434535,3.3468206373,0.208737252927106,474.968060029632
37011,Pittem,WestVlaanderen,Flanders,1295,6784,34.6856116513357,50.99996475,3.26227300345,0.19089033018867901,195.585422226186
37012,Ruiselede,WestVlaanderen,Flanders,980,5379,30.622699268455,51.062755,3.37894958031,0.182189998140918,175.654012497226
37015,Tielt (Tielt),WestVlaanderen,Flanders,3999,20390,68.850114516312,50.9346235,4.91555133176,0.19612555174105,296.150560434713
37017,Wielsbeke,WestVlaanderen,Flanders,1946,9851,21.9186747599332,50.91140755,3.3604037489,0.197543396609481,449.434106208254
37018,Wingene,WestVlaanderen,Flanders,2758,14699,68.536993179748,51.06808895,3.28476830811,0.18763181168787,214.468118866111
37020,Ardooie,WestVlaanderen,Flanders,1913,9151,34.9190188311726,50.97076545,3.20459366745,0.209048191454486,262.063491653173
38002,Alveringem,WestVlaanderen,Flanders,708,5024,80.707925182489,51.01509585,2.72256881027,0.140923566878981,62.2491532106694
38008,De Panne,WestVlaanderen,Flanders,1081,11232,26.6278143039676,51.09437775,2.58066968871,0.0962428774928775,421.814568472727
38014,Koksijde,WestVlaanderen,Flanders,2104,21852,50.360010491904,51.1091101,2.6353426015,0.0962840929892001,433.915715794241
38016,Nieuwpoort,WestVlaanderen,Flanders,1397,11667,33.283494664542,51.144160050000004,2.7283986495,0.119739436016114,350.534104594168
38025,Veurne,WestVlaanderen,Flanders,1473,12172,97.2072388757907,51.071043,2.65488582372,0.121015445284259,125.217012032953
41002,Aalst (Aalst),OostVlaanderen,Flanders,14056,87978,78.6558566059465,50.9429755,4.03964242035,0.159767214530905,1118.51810909334
41011,Denderleeuw,OostVlaanderen,Flanders,3259,20730,13.865024534277,50.8843903,4.06654683271,0.15721177038109,1495.12898074947
41018,Geraardsbergen,OostVlaanderen,Flanders,5408,33970,80.0550195902743,50.7689045,3.879789,0.15919929349426,424.333167037622
41024,Haaltert,OostVlaanderen,Flanders,3084,18892,30.51904769946,50.9022532,4.0057717,0.163243701037476,619.023246925698
41027,Herzele,OostVlaanderen,Flanders,2857,18414,47.904972022164,50.88830225,3.88739538341,0.155153687411752,384.385987982218
41034,Lede,OostVlaanderen,Flanders,2933,18980,29.8925866232492,50.9660758,3.9775435,0.154531085353003,634.940035106837
41048,Ninove,OostVlaanderen,Flanders,6159,39369,73.1182726688186,50.8353611,4.0242373,0.156442886535091,538.429021406423
41063,Sint-Lievens-Houtem,OostVlaanderen,Flanders,1755,10474,27.052803328097,50.91972825,3.85213213668,0.167557762077525,387.16874820591
41081,Zottegem,OostVlaanderen,Flanders,4121,26921,57.461463484312,50.86909165,3.81554601768,0.153077523123212,468.505296725516
41082,Erpe-Mere,OostVlaanderen,Flanders,3321,20286,34.411853962317,50.9226391,3.9459888,0.163708961845608,589.506163260322
42003,Berlare,OostVlaanderen,Flanders,2465,15222,38.2282767770836,51.0301606,4.01134702972,0.16193667060833,398.186925577692
42004,Buggenhout,OostVlaanderen,Flanders,1927,14689,25.64187904655,51.0113077,4.19280431901,0.131186602219348,572.851933874805
42006,Dendermonde,OostVlaanderen,Flanders,7266,46015,56.523205063787,51.0312293,4.098112,0.157905030968163,814.09042442076
42008,Hamme (Dendermonde),OostVlaanderen,Flanders,4146,24980,40.533413724121,51.0881618,4.12028078104,0.165972778222578,616.281672449776
42010,Laarne,OostVlaanderen,Flanders,2064,12371,32.580703158654,51.029657,3.8504738,0.166841807452914,379.703284479729
42011,Lebbeke,OostVlaanderen,Flanders,2900,19560,27.302545237979,51.0004013,4.1307711,0.148261758691207,716.416723404645
42023,Waasmunster,OostVlaanderen,Flanders,1654,10912,32.267988400933,51.1097147,4.0842158,0.151576246334311,338.167965861934
42025,Wetteren,OostVlaanderen,Flanders,4139,26206,37.0176234646452,51.0068804,3.8855494,0.157940929558116,707.933074769882
42026,Wichelen,OostVlaanderen,Flanders,1805,11690,23.196802740685,51.0020843,3.9806438099,0.154405474764756,503.948760985791
42028,Zele,OostVlaanderen,Flanders,3930,21333,33.27553563226,51.0683621,4.0385864,0.184221628462945,641.101626004123
43002,Assenede,OostVlaanderen,Flanders,2054,14369,87.498417122981,51.23004155,3.75680766576,0.142946621198413,164.220113602787
43005,Eeklo,OostVlaanderen,Flanders,2873,21549,30.448886915686,51.1844827,3.5665965,0.133324052160193,707.710599066229
43007,Kaprijke,OostVlaanderen,Flanders,807,6508,33.639036787477004,51.228952,3.62192513724,0.1240012292563,193.465705962864
43010,Maldegem,OostVlaanderen,Flanders,3550,24114,95.6326542653902,51.2263133,3.4154538,0.147217384092229,252.152365583007
43014,Sint-Laureins,OostVlaanderen,Flanders,1005,6919,74.535164209524,51.2330483,3.53748206799,0.145252204075733,92.8286678291895
43018,Zelzate,OostVlaanderen,Flanders,1975,13124,13.76752880046,51.2000036,3.8105002,0.150487656202377,953.257493789408
44012,De Pinte,OostVlaanderen,Flanders,1516,10990,17.781438977887,50.9924205,3.6495958,0.137943585077343,618.060215130348
44013,Destelbergen,OostVlaanderen,Flanders,2520,18683,26.705390406084,51.0556204,3.7978887,0.134881978269015,699.596587651595
44019,Evergem,OostVlaanderen,Flanders,5247,35791,75.37472891932,51.1087891,3.7078565,0.146601100835406,474.840845375512
44020,Gavere,OostVlaanderen,Flanders,2091,13007,31.597165139886,50.9292335,3.6614192,0.160759590989467,411.650853562837
44021,Gent,OostVlaanderen,Flanders,39308,263703,157.768979303908,51.0397129,3.71415490006,0.149061633731888,1671.45025063535
44034,Lochristi,OostVlaanderen,Flanders,3567,22621,60.659048636655,51.0991574,3.8271355,0.157685336634101,372.920454712351
44040,Melle,OostVlaanderen,Flanders,1942,11782,15.338737038038,51.00303,3.7988833,0.164827703276184,768.120606721546
44043,Merelbeke,OostVlaanderen,Flanders,3831,24779,37.001449957754,50.9942924,3.7459119,0.154606723435167,669.676459389866
44045,Moerbeke (Gent),OostVlaanderen,Flanders,990,6619,37.928977426171,51.1742698,3.9446436,0.149569421362744,174.510373048784
44048,Nazareth,OostVlaanderen,Flanders,1928,11844,35.434967858143,50.959802,3.5963218,0.162782843633907,334.246105356019
44052,Oosterzele,OostVlaanderen,Flanders,2046,13740,43.56888272751,50.9456388,3.8032713,0.148908296943231,315.36268868617
44064,Sint-Martens-Latem,OostVlaanderen,Flanders,1207,8285,14.451885144724,51.0134462,3.63062912388,0.145684972842486,573.281611155389
44073,Wachtebeke,OostVlaanderen,Flanders,1234,7769,34.631253225235,51.1701927,3.8574284,0.15883640108122,224.334936696397
44081,Zulte,OostVlaanderen,Flanders,3340,15843,32.761039334145,50.9206638,3.4485632,0.210818658082434,483.592716287475
44083,Deinze,OostVlaanderen,Flanders,7162,43922,128.027111680723,50.9840526,3.5274017,0.163061791357406,343.067959773503
44084,Aalter,OostVlaanderen,Flanders,4404,29242,119.848843832501,51.088195,3.41768032824,0.150605293755557,243.990672457952
44085,Lievegem,OostVlaanderen,Flanders,3835,26441,80.779875944451,51.1515304,3.6061712,0.145039900155062,327.321621763599
45035,Oudenaarde,OostVlaanderen,Flanders,5050,31650,68.9191497058545,50.8442604,3.604782,0.15955766192733,459.233756293883
45041,Ronse,OostVlaanderen,Flanders,4317,26510,34.699948817653,50.7476192,3.6020465,0.162844209732177,763.978072109245
45059,Brakel,OostVlaanderen,Flanders,2302,14762,56.9628646686681,50.7979739,3.762778,0.155940929413359,259.151292440524
45060,Kluisbergen,OostVlaanderen,Flanders,1176,6682,30.634453846309,50.7782986,3.5212498,0.175995211014666,218.120421977266
45061,Wortegem-Petegem,OostVlaanderen,Flanders,1198,6445,42.471842261635,50.845989,3.53298311215,0.185880527540729,151.747596920744
45062,Horebeke,OostVlaanderen,Flanders,311,2009,11.247300748962,50.8348628,3.6920346,0.154803384768542,178.620634838577
45063,Lierde,OostVlaanderen,Flanders,1072,6626,26.316190740397,50.815045,3.8249605,0.161786900090552,251.784160761104
45064,Maarkedal,OostVlaanderen,Flanders,1077,6362,46.1542977775639,50.7973072,3.642779,0.169286387928324,137.841984524627
45065,Zwalm,OostVlaanderen,Flanders,1336,8224,33.8777169671388,50.8793307,3.719334,0.162451361867704,242.755437386092
45068,Kruisem,OostVlaanderen,Flanders,2660,15750,71.588607422236,50.9200896,3.54044627685,0.168888888888889,220.007073291775
46003,Beveren (Sint-Niklaas),OostVlaanderen,Flanders,7838,49062,152.684414906153,50.871701,3.34274723588,0.159757042109983,321.329456121345
46013,Kruibeke,OostVlaanderen,Flanders,2698,16785,33.5275738195004,51.1712275,4.3091107,0.160738754840632,500.632705795057
46014,Lokeren,OostVlaanderen,Flanders,7134,42145,68.241116979685,51.1042159,3.9911114,0.169272748843279,617.589539346877
46020,Sint-Gillis-Waas,OostVlaanderen,Flanders,3071,19590,55.4884553579581,51.2180687,4.1233014,0.156763654925983,353.046410710556
46021,Sint-Niklaas (Sint-Niklaas),OostVlaanderen,Flanders,12681,79357,84.19803547374,51.1638130601,4.14946432072,0.159796867321093,942.504175465592
46024,Stekene,OostVlaanderen,Flanders,2914,18863,45.264060957847,51.2104744,4.02404125321,0.15448231988549,416.732383282325
46025,Temse,OostVlaanderen,Flanders,4870,30287,40.096340429092,51.1421436,4.21335052785,0.160795060587051,755.35571765111
51004,Aat,Hainaut,Wallonia,4350,29571,127.898957805351,50.6395044994,3.79267935022,0.147103581211322,231.20594966070001
51008,Beloeil,Hainaut,Wallonia,2309,14074,62.264537749733,50.5479197,3.7361279,0.164061389796788,226.035565486236
51009,Bernissart,Hainaut,Wallonia,1860,11804,43.808904629449,50.475502,3.6504677,0.15757370382921,269.4429385953
51012,Brugelette,Hainaut,Wallonia,466,3692,28.586716470472,50.5954253,3.8546563,0.126218851570964,129.150894395779
51014,Chièvres,Hainaut,Wallonia,1086,6942,47.3703777637489,50.587693,3.810128,0.156439066551426,146.547279707626
51017,Elzele,Hainaut,Wallonia,914,6004,45.113023294496,50.7338701,3.6802062,0.152231845436376,133.087954686746
51019,Vloesberg,Hainaut,Wallonia,444,3435,23.275782205777,50.7371675,3.7378707,0.129257641921397,147.578284142367
51065,Frasnes-lez-Anvaing,Hainaut,Wallonia,2103,11874,112.864121081234,50.6845672712,3.54552539702,0.17710965133906,105.206153082552
51067,Edingen,Hainaut,Wallonia,1876,14155,39.3964573081641,50.6927553,4.0406912,0.132532673966796,359.296265887001
51068,Opzullik,Hainaut,Wallonia,1268,8377,68.5735622925979,50.6489028,3.9243973,0.151366837770085,122.160782084734
51069,Lessen,Hainaut,Wallonia,2586,18682,72.671485868224,50.7123036,3.8301131,0.138422010491382,257.074694108722
52010,Chapelle-lez-Herlaimont,Hainaut,Wallonia,3153,14735,18.206291972725,50.4713265,4.2804202,0.213980318968442,809.335586953929
52011,Charleroi,Hainaut,Wallonia,36808,201837,102.947656213053,50.41571025,4.44916499992,0.182364977680009,1960.57887497985
52012,Châtelet,Hainaut,Wallonia,6609,35567,27.3458945393762,50.4046075,4.5243511,0.185818314729946,1300.63399274747
52015,Courcelles,Hainaut,Wallonia,5657,31053,44.5251503607526,50.4601576,4.3763406,0.182172414903552,697.426055799963
52018,Farciennes,Hainaut,Wallonia,2025,11251,10.365293951018,50.4273228,4.553041,0.179984001422096,1085.44919740506
52021,Fleurus,Hainaut,Wallonia,4316,22975,59.4753915920439,50.47194905,4.54465453259,0.187856365614799,386.294219928657
52022,Fontaine-l’Evêque,Hainaut,Wallonia,3564,17959,28.660326717156,50.411224661,4.32396379252,0.19845202962303,626.615327076847
52025,Gerpinnes,Hainaut,Wallonia,2495,12735,47.6846797753792,50.3378166,4.5276771,0.195916764821358,267.066908281418
52048,Montigny-le-Tilleul,Hainaut,Wallonia,1927,10130,15.230364756899,50.3690720456,4.36023148065,0.190227048371175,665.118673235409
52055,Pont-à-Celles,Hainaut,Wallonia,3137,17337,56.1017099126327,50.5043242,4.36229729389,0.180942492934187,309.028014065863
52074,Aiseau-Presles,Hainaut,Wallonia,2179,10790,22.424697763812,50.4065228,4.584081,0.20194624652456,481.165905273088
52075,Les Bons Villers,Hainaut,Wallonia,1662,9463,42.9672471221899,50.53495775,4.42525881308,0.175631406530699,220.237521223764
53014,Boussu,Hainaut,Wallonia,3150,19842,20.0761029526543,50.4331253,3.7960902,0.158754157846991,988.339223343973
53020,Dour,Hainaut,Wallonia,2668,16528,33.6202232573594,50.3978815,3.7806897,0.161423039690223,491.608871050018
53028,Frameries,Hainaut,Wallonia,3528,21745,26.091166652966,50.4087571,3.8905656,0.162244194067602,833.423828425398
53039,Hensies,Hainaut,Wallonia,990,6838,26.4126641140196,50.4328388,3.6847215,0.144779175197426,258.890961187458
53044,Jurbeke,Hainaut,Wallonia,1619,10655,58.177412490165,50.5325067,3.9113179,0.151947442515251,183.146680884119
53046,Lens,Hainaut,Wallonia,613,4629,49.825594587487,50.5570816,3.9005461,0.132426009937351,92.904059416132
53053,Bergen,Hainaut,Wallonia,13917,95705,147.558380012674,50.4549568,3.951958,0.145415600020898,648.590747552118
53065,Quaregnon,Hainaut,Wallonia,3016,18940,11.209230267091,50.4421804,3.8636971,0.159239704329461,1689.6789118166
53068,Quiévrain,Hainaut,Wallonia,872,6778,21.4820434087613,50.4084818,3.6819263,0.128651519622307,315.519332636468
53070,Saint-Ghislain,Hainaut,Wallonia,3718,23451,70.5855264185503,50.4483595028,3.82147813964,0.158543345699544,332.235249772635
53082,Colfontaine,Hainaut,Wallonia,3252,20693,13.7456832358013,50.4056635,3.8513958,0.157154593340743,1505.41807526192
53083,Honnelles,Hainaut,Wallonia,719,5130,44.271073470557,50.352089,3.731019,0.140155945419103,115.87701850988
53084,Quévy,Hainaut,Wallonia,1338,8073,65.3839191484858,50.3667226,3.9439033,0.165737643998514,123.470726520176
55004,’s Gravenbrakel,Hainaut,Wallonia,3510,22290,84.866742186246,50.6123481,4.1425138,0.157469717362046,262.647056146954
55035,Le Roeulx,Hainaut,Wallonia,1608,8804,43.41282372708,50.5034034,4.112245,0.182644252612449,202.797220824598
55040,Zinnik,Hainaut,Wallonia,4662,28311,111.266811901716,50.5775309,4.0732968,0.164670975945745,254.442447987165
55050,Ecaussinnes,Hainaut,Wallonia,1959,11303,34.8598461416841,50.5696129,4.1752492,0.173316818543749,324.241247481706
55085,Seneffe,Hainaut,Wallonia,2114,11407,63.769532535191,50.52505545,4.26646092408,0.185324800561059,178.878526257113
55086,Manage,Hainaut,Wallonia,4360,23547,19.4306725687208,50.5036133,4.2343288,0.185161591710197,1211.84688366915
56001,Anderlues,Hainaut,Wallonia,2444,12429,17.195820143867,50.4079969,4.2696102,0.196636897578244,722.79192827176
56005,Beaumont,Hainaut,Wallonia,1350,7120,93.4767742347817,50.2355294,4.2383115,0.189606741573034,76.1686532112992
56016,Chimay,Hainaut,Wallonia,1577,9647,198.600873169126,50.0479266,4.3173338,0.163470508966518,48.574811611149
56022,Erquelinnes,Hainaut,Wallonia,1703,10013,44.5435288720031,50.3102184,4.1241436,0.170078897433337,224.79135024916
56029,Froidchapelle,Hainaut,Wallonia,634,4011,86.5432301859434,50.1511597,4.3269129,0.158065320368985,46.3467794232099
56044,Lobbes,Hainaut,Wallonia,1209,5861,32.2299071801569,50.3460194,4.2654874,0.206278792015015,181.849732524469
56049,Merbes-le-Château,Hainaut,Wallonia,847,4228,30.531746730616,50.3234035,4.1644816,0.200331125827815,138.478811491002
56051,Momignies,Hainaut,Wallonia,919,5310,86.007394018107,50.0286317,4.1649981,0.173069679849341,61.738877925799
56078,Thuin,Hainaut,Wallonia,2631,14787,76.6551461778431,50.3397445,4.2870475,0.177926557110976,192.90290003092
56086,Ham-sur-Heure-Nalinnes,Hainaut,Wallonia,2803,13655,45.7054191128818,50.3219897,4.3889214,0.205272793848407,298.761071773028
56088,Sivry-Rance,Hainaut,Wallonia,771,4798,73.5557725902527,50.1640023,4.1899982,0.160691954981242,65.2294147833587
57003,Antoing,Hainaut,Wallonia,1412,7638,31.3307745155215,50.565911,3.4513116,0.184865147944488,243.785866072863
57018,Celles (Doornik),Hainaut,Wallonia,1054,5612,67.486390108544,50.6538847,5.2455346,0.187811831789024,83.1575076244818
57027,Estaimpuis,Hainaut,Wallonia,1502,10546,32.082171676745,50.7059794,3.2640184,0.142423667741324,328.718395570595
57062,Pecq,Hainaut,Wallonia,1232,5829,33.148498762107,50.685616,3.3407492,0.211357008063133,175.845067429216
57064,Péruwelz,Hainaut,Wallonia,3029,17178,61.0016790223993,50.5097897,3.5908864,0.176330189777623,281.598806381909
57072,Rumes,Hainaut,Wallonia,889,5246,24.013802851386,50.5557678,3.3039251,0.169462447579108,218.457694204699
57081,Doornik,Hainaut,Wallonia,10894,68795,215.342684708892,50.60566,3.3878259,0.15835453157933,319.467550490511
57093,Brunehaut,Hainaut,Wallonia,1418,8074,46.5455322331997,50.5178063,3.3795619,0.175625464453802,173.464554225057
57094,Leuze-en-Hainaut,Hainaut,Wallonia,2390,13959,74.4626570188355,50.5990429816,3.61773690264,0.171215703130597,187.463093030229
57095,Mont-de-l’Enclus,Hainaut,Wallonia,626,3791,27.158155544463,50.7456511,3.5110542,0.165127934581905,139.589744737761
57096,Moeskroen,Hainaut,Wallonia,9503,58862,40.6228795189349,50.7433351,3.2139093,0.161445414698787,1448.98640118713
57097,Komen-Waasten,Hainaut,Wallonia,2474,18090,61.3393694116006,50.7712001207,3.00190778171,0.136760641238253,294.916628154622
58001,La Louvière,Hainaut,Wallonia,16147,80944,64.5573410740426,50.479487,4.1852682,0.199483593595572,1253.83106945441
58002,Binche,Hainaut,Wallonia,7306,33416,61.2221488029325,50.4128248461,4.170167716,0.218637778309792,545.815536588931
58003,Estinnes,Hainaut,Wallonia,1535,7835,73.2935838451952,50.3976702,4.0975758,0.195915762603701,106.898852381792
58004,Morlanwelz,Hainaut,Wallonia,4015,19162,20.377579076151,50.4509843,4.2523562,0.209529276693456,940.347228117315
61003,Amay,Liège,Wallonia,2814,14368,27.662523872146,50.5497761,5.3240992,0.195851893095768,519.403076393454
61010,Burdinne,Liège,Wallonia,718,3300,32.615964889474,50.5812607,5.072436,0.217575757575758,101.177445192339
61012,Clavier,Liège,Wallonia,995,4736,79.500856328261,50.4115085,5.3575692,0.210092905405405,59.5716853721039
61019,Ferrières,Liège,Wallonia,995,5023,57.0628758026804,50.3999541,5.605138,0.198088791558829,88.0257072456214
61024,Hamoir,Liège,Wallonia,754,3860,27.753278869438,50.4253958,5.5328465,0.195336787564767,139.082665445006
61028,Héron,Liège,Wallonia,1143,5542,38.409770901339,50.5508203,5.0971783,0.206243233489715,144.286202962143
61031,Hoei,Liège,Wallonia,3775,21392,47.6362226419548,50.5215385,5.2357453,0.176467838444278,449.070031450381
61039,Marchin,Liège,Wallonia,1120,5501,30.155606629516,50.4802051,5.2263372,0.203599345573532,182.420472172351
61041,Modave,Liège,Wallonia,851,4220,40.423457680052,50.4416137,5.3017936,0.201658767772512,104.394830185011
61043,Nandrin,Liège,Wallonia,1191,5774,36.128697172077,50.506355,5.4190411,0.206269483893315,159.817553688667
61048,Ouffet,Liège,Wallonia,567,2801,40.2384266236196,50.4377341,5.4653273,0.202427704391289,69.6100776056646
61063,Verlaine,Liège,Wallonia,899,4246,24.397084617611,50.6075114,5.3184439,0.21172868582195,174.037187907896
61068,Villers-Le-Bouillet,Liège,Wallonia,1494,6592,32.863810788855,50.5750242,5.2619239,0.226638349514563,200.585380750656
61072,Wanze,Liège,Wallonia,2816,13813,44.0349016666929,50.5332587,5.2166503,0.203865923405488,313.682998648499
61079,Anthisnes,Liège,Wallonia,822,4198,37.316789685834,50.481662,5.5225261,0.195807527393997,112.496279431926
61080,Engis,Liège,Wallonia,1142,6207,27.7443413627726,50.582433,5.4043113,0.183985822458515,223.721295771273
61081,Tinlot,Liège,Wallonia,598,2720,37.255728157351,50.4777419,5.3786954,0.219852941176471,73.0089072078252
62003,Ans,Liège,Wallonia,5570,28503,23.3463452631039,50.6624326,5.5190612,0.195418026172684,1220.87631613354
62006,Awans,Liège,Wallonia,1846,9207,27.215069762246,50.6669712,5.4620018,0.200499619854459,338.305214002147
62009,Aywaille,Liège,Wallonia,2339,12607,79.9179408626531,50.4734827,5.6742167,0.185531847386373,157.74930965334
62011,Bitsingen,Liège,Wallonia,1811,8942,38.206044360919,50.7583596,5.6094772,0.202527398792217,234.046736572048
62015,Beyne-Heusay,Liège,Wallonia,2132,11962,7.2852882852421,50.6220566,5.6534141,0.178231065039291,1641.93914250882
62022,Chaudfontaine,Liège,Wallonia,3718,20807,25.457397869129,50.5847922,5.6469688,0.178689863988081,817.326268260578
62026,Comblain-au-Pont,Liège,Wallonia,1032,5375,22.631963400573,50.4749107436,5.57647072689,0.192,237.49596554508
62027,Dalhem,Liège,Wallonia,1522,7601,36.1088581633136,50.7139302,5.7229816,0.200236810945928,210.502363869334
62032,Esneux,Liège,Wallonia,2409,13018,34.13148629846,50.5337249,5.57577274403,0.185051467199263,381.407357598352
62038,Fléron,Liège,Wallonia,2826,16214,13.6836703624608,50.6168354,5.6832219,0.174293820155421,1184.91600356589
62051,Herstal,Liège,Wallonia,8386,40157,23.3584252726286,50.6701887,5.6403906,0.208830340911921,1719.16554867489
62060,Juprelle,Liège,Wallonia,2117,9463,35.4746600424772,50.7106926,5.5290689,0.223713410123639,266.753789568922
62063,Luik,Liège,Wallonia,35492,196296,68.6501869680509,50.6451381,5.5734203,0.180808574805396,2859.36584690373
62079,Oupeye,Liège,Wallonia,5142,25376,36.0896917322877,50.7091889,5.6450671,0.202632408575032,703.137067178031
62093,Saint-Nicolas (Luik),Liège,Wallonia,4970,24268,6.9056537486289,50.6305341,5.539419,0.204796439756057,3514.2219525296
62096,Seraing,Liège,Wallonia,11871,63787,35.246401826823,50.5966392,5.5083375,0.186103751548121,1809.74501492113
62099,Soumagne,Liège,Wallonia,3328,17200,27.1928693472476,50.6147718,5.739941,0.193488372093023,632.518759986649
62100,Sprimont,Liège,Wallonia,3155,14932,74.4612704228555,50.5065636,5.64665707629,0.211291186713099,200.533779711294
62108,Wezet,Liège,Wallonia,3812,17865,27.7278240203582,50.7336644,5.695536,0.213378113630003,644.298665011839
62118,Grâce-Hollogne,Liège,Wallonia,4726,22860,34.1723367309993,50.644955,5.503152,0.20673665791776,668.962154386786
62119,Blegny,Liège,Wallonia,2908,13382,26.0785131507912,50.6727185,5.7252372,0.217306830070244,513.142751759757
62120,Flémalle,Liège,Wallonia,5437,26402,36.5677543547032,50.6022808,5.4580872,0.205931368835694,722.002224799026
62121,Neupré,Liège,Wallonia,2117,9938,31.743073208912,50.5431751,5.4901079,0.213020728516804,313.076176795946
62122,Trooz,Liège,Wallonia,1568,8312,24.2584619009009,50.5728102,5.6883726,0.188642925890279,342.643323140422
63001,Amel,Liège,Wallonia,1349,5523,125.883268222324,50.3543055,6.1705559,0.244251312692377,43.8739800610021
63003,Aubel,Liège,Wallonia,892,4276,18.8496390882362,50.7041498,5.8585553,0.208606173994387,226.847844671392
63004,Baelen,Liège,Wallonia,752,4436,85.6458869314972,50.6311898,5.9715011,0.169522091974752,51.7946647402704
63012,Büllingen,Liège,Wallonia,1092,5455,150.672868542919,50.4075533,6.257827,0.200183318056829,36.2042619401392
63013,Bütgenbach,Liège,Wallonia,1205,5604,97.0396396000232,50.4267259,6.2053573,0.215024982155603,57.7495961763512
63020,Dison,Liège,Wallonia,2928,15131,13.9717329442277,50.611374,5.854735,0.193510012557002,1082.97231706331
63023,Eupen,Liège,Wallonia,2769,19900,95.9974199445713,50.6306134,6.031452,0.139145728643216,207.297237899625
63035,Herve,Liège,Wallonia,3528,17473,56.8398495501492,50.6392112,5.7935245,0.201911520631832,307.407569483163
63038,Jalhay,Liège,Wallonia,1940,8679,106.934773872111,50.5592528,5.9647526,0.223528056227676,81.1616248459989
63040,Kelmis,Liège,Wallonia,1263,11086,18.0390727035406,50.7154957,6.013341,0.113927476095977,614.554871095126
63045,Lierneux,Liège,Wallonia,769,3564,92.3410147456761,50.28574,5.7920929,0.215768799102132,38.5960670869375
63046,Limburg,Liège,Wallonia,1212,5867,24.6437892314471,50.6122761,5.9402987,0.206579171637975,238.072154606538
63048,Lontzen,Liège,Wallonia,825,5885,28.708292150084,50.6804233,6.0073447,0.14018691588785,204.99303717664
63049,Malmedy,Liège,Wallonia,2981,12778,100.367234571778,50.4239904,6.0266001,0.233291594928784,127.312464615749
63057,Olne,Liège,Wallonia,722,4051,16.0378924600487,50.5901199,5.7479948,0.17822759812392,252.589298131988
63058,Pepinster,Liège,Wallonia,1942,9615,24.8946381919538,50.5675217,5.8037101,0.201976079043162,386.227746146062
63061,Raeren,Liège,Wallonia,1006,10889,72.81389768919,50.6761305,6.1108404,0.0923868123794655,149.54562721639
63067,Sankt Vith,Liège,Wallonia,2027,9853,147.149227211082,50.2803881,6.1258953,0.205724144930478,66.959237141396
63072,Spa,Liège,Wallonia,2034,10122,39.849664979142,50.4920838,5.8626233,0.200948429164197,254.004644839499
63073,Stavelot,Liège,Wallonia,1469,7195,85.1386060789679,50.3940846,5.9308362,0.204169562195969,84.509252985966
63075,Stoumont,Liège,Wallonia,595,3174,108.539822113433,50.4069504,5.80836,0.187460617517328,29.2427234373288
63076,Theux,Liège,Wallonia,2382,12011,83.47941905503,50.52586075,5.81989558438,0.19831820830905,143.879774631425
63079,Verviers,Liège,Wallonia,10503,55159,33.0082681909417,50.5932274,5.8638544,0.190413169201762,1671.06616078504
63080,Weismes,Liège,Wallonia,1851,7417,97.5561955857149,50.4149134,6.1117543,0.249561817446407,76.0279750093706
63084,Welkenraedt,Liège,Wallonia,1765,10175,24.721597864841,50.6627086,5.9723396,0.173464373464373,411.583428208371
63086,Trois-Ponts,Liège,Wallonia,458,2555,68.8275897746917,50.3727015,5.8704355,0.179256360078278,37.1217415627053
63087,Burg-Reuland,Liège,Wallonia,748,3949,109.84299407525,50.1747808743,6.12167935806,0.18941504178273,35.9513142667494
63088,Plombières,Liège,Wallonia,1790,10547,53.1703287969126,50.7374801,5.9590725,0.16971650706362,198.362512300515
63089,Thimister-Clermont,Liège,Wallonia,1174,5642,28.6424347879619,50.66298735,5.86344864634,0.208082240340305,196.980460696423
64008,Berloz,Liège,Wallonia,549,3185,14.508032812541,50.6977331,5.2146261,0.172370486656201,219.533553663239
64015,Braives,Liège,Wallonia,1221,6384,44.049734637569,50.6300711,5.1435257,0.191259398496241,144.927093262333
64021,Crisnée,Liège,Wallonia,716,3496,16.969281063211,50.715885,5.397318,0.204805491990847,206.019334995826
64023,Donceel,Liège,Wallonia,610,3108,23.451363462541,50.6478971,5.3199408,0.196267696267696,132.529607711911
64025,Fexhe-le-Haut-Clocher,Liège,Wallonia,592,3269,19.4525225105744,50.6660818,5.3985197,0.181095136127256,168.050184659751
64029,Geer,Liège,Wallonia,604,3487,23.602523517882,50.6684881,5.1710529,0.173214797820476,147.738439805309
64034,Hannuit,Liège,Wallonia,3015,16824,86.493279290915,50.6724649,5.0779916,0.179208273894437,194.512222659676
64047,Lijsem,Liège,Wallonia,608,3318,14.733062140612,50.711613,5.0318166,0.183242917420133,225.207765251588
64056,Oerle,Liège,Wallonia,711,3916,19.496732913127,50.7291681,5.3530675,0.181562819203269,200.854164513039
64063,Remicourt,Liège,Wallonia,1219,6049,22.82682374393,50.6807151,5.3267174,0.201520912547529,264.995255925981
64065,Saint-Georges-sur-Meuse,Liège,Wallonia,1344,7057,20.927757252898,50.6000686,5.3579041,0.190449199376506,337.207657501034
64074,Borgworm,Liège,Wallonia,2574,15255,30.8899932420097,50.6976875,5.2546191,0.168731563421829,493.849250159548
64075,Wasseiges,Liège,Wallonia,628,2996,24.480602730153,50.6221762,5.006384,0.209612817089453,122.382607692489
64076,Faimes,Liège,Wallonia,739,3945,28.526154754764,50.665246,5.262322,0.187325728770596,138.294138621721
71002,As,Limburg,Flanders,1216,8279,22.128540395161,51.0005396,5.57220258525,0.146877642227322,374.132222557726
71004,Beringen,Limburg,Flanders,6781,46882,78.560974378475,51.0502026,5.2208090823,0.144639733799753,596.759400846297
71011,Diepenbeek,Limburg,Flanders,2225,19157,41.409689836826,50.9078485,5.4200307,0.116145534269458,462.621190245272
71016,Genk,Limburg,Flanders,11420,66673,87.5710994473743,50.9654864,5.5001456,0.171283728045836,761.358489510195
71017,Gingelom,Limburg,Flanders,1083,8426,56.342371790733,50.7513838,5.13257894754,0.128530738191313,149.54996980418
71020,Halen,Limburg,Flanders,1135,9360,36.596220932293,50.9384339,5.10739134445,0.121260683760684,255.764113385287
71022,Hasselt,Limburg,Flanders,9616,79089,102.687994762694,50.930358,5.33683839707,0.12158454399474,770.187402945886
71024,Herk-de-Stad,Limburg,Flanders,1430,12716,43.02851853805,50.9222911,5.1884301869,0.112456747404844,295.524931650976
71034,Leopoldsburg,Limburg,Flanders,2479,16065,22.596942354604,51.1220584,5.26389242948,0.154310613134143,710.936893492002
71037,Lummen,Limburg,Flanders,1691,15086,53.6993729369703,51.00313255,5.20255899987,0.112090680100756,280.934379209739
71045,Nieuwerkerken (Hasselt),Limburg,Flanders,1057,7062,22.509451245461,50.87457545,5.19097417876,0.149674313225715,313.734880650369
71053,Sint-Truiden,Limburg,Flanders,5574,40557,107.11698700017,50.82694775,5.2034249116,0.137436200902434,378.623420391163
71057,Tessenderlo,Limburg,Flanders,2563,18881,51.641695307699,51.0681628,5.0893974,0.135744928764366,365.61541768721
71066,Zonhoven,Limburg,Flanders,2822,21339,39.674015032499,50.9909835,5.3677683,0.132246122123811,537.858343364546
71067,Zutendaal,Limburg,Flanders,1018,7290,32.112330964183,50.9318992,5.5725548,0.139643347050754,227.015597470362
71069,Ham,Limburg,Flanders,1594,11031,32.787660701505,51.11417145,5.17811097432,0.144501858399057,336.437542782479
71070,Heusden-Zolder,Limburg,Flanders,5551,34207,53.398523633335,51.0233485,5.2750485,0.162276726985705,640.598235166293
72003,Bocholt,Limburg,Flanders,1946,13253,59.287952713993,51.1924818,5.59955819463,0.146834678940617,223.536138343871
72004,Bree,Limburg,Flanders,2289,16097,64.9825921524711,51.1386239,5.62298050585,0.142200410014288,247.712494482076
72018,Kinrooi,Limburg,Flanders,1822,12216,54.8023111990369,51.14313325,5.7414564607,0.149148657498363,222.91030675025
72020,Lommel,Limburg,Flanders,5043,34255,102.27781973072,51.2305657,5.3076895,0.147219384031528,334.921101077317
72021,Maaseik,Limburg,Flanders,3836,25389,77.1829007321866,51.0947181,5.791733,0.151089054314861,328.945916247643
72030,Peer,Limburg,Flanders,2304,16421,87.234574886045,51.10874,5.44915721901,0.140308142013276,188.239583003079
72037,Hamont-Achel,Limburg,Flanders,2102,14337,43.729340299046,51.2547636,5.5128696,0.146613656971472,327.857678665067
72038,Hechtel-Eksel,Limburg,Flanders,1623,12543,76.6764336960928,51.11664635,5.34156437753,0.129394881607271,163.583507935622
72039,Houthalen-Helchteren,Limburg,Flanders,5187,30498,78.227379754636,51.0281818,5.3713044,0.170076726342711,389.863499143886
72041,Dilsen-Stokkem,Limburg,Flanders,3416,20819,65.8841044674354,51.0284779,5.7311405,0.164080887650704,315.994277652969
72042,Oudsbergen,Limburg,Flanders,3788,23520,116.368750901528,51.0429949,5.581962,0.161054421768707,202.116116378209
72043,Pelt,Limburg,Flanders,4659,33383,83.783369950302,51.2289746,5.4314419,0.139562052541713,398.444226101216
73001,Alken,Limburg,Flanders,1388,11685,28.235033600697,50.8754731,5.3079873,0.118784766795036,413.847568423349
73006,Bilzen,Limburg,Flanders,4404,32536,75.978723401518,50.8713356,5.5163011,0.135357757560856,428.22514703307
73009,Borgloon,Limburg,Flanders,1426,11123,51.321505206113,50.8004351,5.3569929253,0.128202822979412,216.731757093421
73022,Heers,Limburg,Flanders,1092,7339,53.059552967814,50.750995,5.3017509,0.14879411363946,138.316280283248
73028,Herstappe,Limburg,Flanders,13,78,1.34733512558,50.7273829,5.4260923,0.166666666666667,57.8920555985821
73032,Hoeselt,Limburg,Flanders,1458,9740,30.103146494074,50.8500788,5.4865309,0.149691991786448,323.554217228335
73040,Kortessem,Limburg,Flanders,1103,8443,33.986454438633,50.86195255,5.37700002878,0.130640767499704,248.422500653751
73042,Lanaken,Limburg,Flanders,3937,25922,58.9528028862778,50.8892784,5.6513208,0.151878713062264,439.707676834374
73066,Riemst,Limburg,Flanders,2170,16709,58.0559377474949,50.8115825,5.5978716,0.12987012987013,287.808631611002
73083,Tongeren,Limburg,Flanders,4078,31224,87.8125619106371,50.7810151,5.4648131,0.130604663079682,355.575550019543
73098,Wellen,Limburg,Flanders,902,7413,26.802507655921,50.8434693,5.34216531767,0.121678133009578,276.578598359709
73107,Maasmechelen,Limburg,Flanders,7290,39161,76.848697419659,50.9635024,5.696445,0.186154592579352,509.58573554146
73109,Voeren,Limburg,Flanders,698,4193,50.608004812533,50.7465898,5.83905271221,0.166467922728357,82.8525055578087
81001,Aarlen,Luxembourg,Wallonia,4822,30393,119.057841356537,49.6827625,5.811919,0.158654953443227,255.279279833267
81003,Attert,Luxembourg,Wallonia,902,5654,71.0846258439117,49.7514982,5.7872217,0.159533073929961,79.5389992262899
81004,Aubange,Luxembourg,Wallonia,2422,17251,46.111220330253,49.5675296,5.804352,0.140397658106776,374.117186152235
81013,Martelange,Luxembourg,Wallonia,279,1916,29.984666810099,49.8313323,5.7376366,0.145615866388309,63.8993260166787
81015,Messancy,Luxembourg,Wallonia,1277,8332,52.6209524431026,49.5969055,5.8169286,0.153264522323572,158.339969406847
82003,Bastenaken,Luxembourg,Wallonia,3355,16296,173.02570046034,50.0009951,5.7153203,0.205878743249877,94.1825402621921
82005,Bertogne,Luxembourg,Wallonia,814,3750,91.6595079198282,50.0842908,5.6675577,0.217066666666667,40.9122859712493
82009,Fauvillers,Luxembourg,Wallonia,481,2338,74.787563189418,49.8509306,5.665031,0.205731394354149,31.2618823276597
82014,Houffalize,Luxembourg,Wallonia,1108,5236,167.411558380809,50.1323761,5.7886928,0.21161191749427,31.2762156367348
82032,Vielsalm,Luxembourg,Wallonia,1513,7879,140.700831889179,50.2883685,5.9170187,0.192029445361086,55.9982474460831
82036,Vaux-sur-Sûre,Luxembourg,Wallonia,1240,5862,135.71742246715,49.9087558292,5.5908285597,0.211531900375299,43.1926859016121
82037,Gouvy,Luxembourg,Wallonia,977,5404,165.354006405952,50.1907895,5.9549305,0.18079200592154,32.681397430026
82038,Sainte-Ode,Luxembourg,Wallonia,627,2587,97.9442000322421,50.0362888,5.5245094,0.242365674526479,26.4129984128554
83012,Durbuy,Luxembourg,Wallonia,2158,11531,157.078810114144,50.3524116,5.456248,0.187147688838782,73.4090103663301
83013,Erezée,Luxembourg,Wallonia,534,3283,78.892382628396,50.2930897,5.5597229,0.162656107219007,41.6136500207352
83028,Hotton,Luxembourg,Wallonia,1123,5662,57.023454942523,50.2688011,5.4463304,0.19833980925468,99.2924754507954
83031,La Roche-en-Ardenne,Luxembourg,Wallonia,756,4213,148.527215892253,50.1829160231,5.5701521879,0.179444576311417,28.3651718285507
83034,Marche-en-Famenne,Luxembourg,Wallonia,3499,17658,122.072321903338,50.2240814,5.3428796,0.198153811303658,144.65195487952101
83040,Nassogne,Luxembourg,Wallonia,1084,5589,113.112752141216,50.1294031,5.3455462,0.193952406512793,49.4108744964705
83044,Rendeux,Luxembourg,Wallonia,434,2651,69.2320211540454,50.2330466,5.5043243,0.163711806865334,38.2915297836151
83049,Tenneville,Luxembourg,Wallonia,597,2890,91.949642041989,50.091248,5.5242133,0.206574394463668,31.4302474247836
83055,Manhay,Luxembourg,Wallonia,705,3607,120.180128973018,50.2929635,5.6756341,0.195453285278625,30.0132811540734
84009,Bertrix,Luxembourg,Wallonia,1579,8936,138.489024167007,49.8546564,5.2529266,0.176700984780662,64.5249690634245
84010,Bouillon,Luxembourg,Wallonia,889,5420,148.642893203959,49.7949836,5.0672528,0.164022140221402,36.4632299814226
84016,Daverdisse,Luxembourg,Wallonia,248,1415,56.8690294266687,50.0217646,5.1184644,0.175265017667845,24.8817328916192
84029,Herbeumont,Luxembourg,Wallonia,304,1653,58.4200414522739,49.7815364,5.2377736,0.183908045977011,28.2950843393429
84033,Léglise,Luxembourg,Wallonia,972,5626,173.722745907028,49.8003582,5.5381496,0.172769285460363,32.3849359542756
84035,Libin,Luxembourg,Wallonia,962,5286,140.580955151539,49.9809464,5.2569017,0.181990162693908,37.6011102947905
84043,Neufchâteau (Neufchâteau),Luxembourg,Wallonia,1488,7836,114.457561011699,50.7195828,5.7764464,0.18989280245023,68.4620564228085
84050,Paliseul,Luxembourg,Wallonia,1039,5453,111.252700743484,49.9035269,5.1349041,0.190537318907024,49.0145404431396
84059,Saint-Hubert,Luxembourg,Wallonia,1223,5625,111.988930625438,50.0251428,5.3738561,0.217422222222222,50.2281785225147
84068,Tellin,Luxembourg,Wallonia,610,2508,56.9519267440068,50.081019,5.216837,0.243221690590112,44.0371405040115
84075,Wellin,Luxembourg,Wallonia,672,3114,67.8646043744914,50.0822967,5.1146708,0.215799614643545,45.8854807848917
84077,Libramont-Chevigny,Luxembourg,Wallonia,2376,11482,179.209813244681,49.9197154,5.3823537,0.20693259014109,64.0701521424121
85007,Chiny,Luxembourg,Wallonia,781,5242,114.062340041233,49.738581,5.3394252,0.148988935520794,45.9573247235244
85009,Etalle,Luxembourg,Wallonia,956,5948,79.4349680815811,49.6729527,5.5982415,0.160726294552791,74.8788618369092
85011,Florenville,Luxembourg,Wallonia,799,5687,148.065155154563,49.6993182,5.3100518,0.140495867768595,38.4087666950635
85024,Meix-devant-Virton,Luxembourg,Wallonia,418,2833,54.968897755355,49.6055933,5.4816156,0.14754677020826,51.5382355420073
85026,Musson,Luxembourg,Wallonia,671,4656,35.3712006835378,49.5580794,5.705881,0.144115120274914,131.632512044381
85034,Saint-Léger (Virton),Luxembourg,Wallonia,639,3691,36.250578652684,49.6134362,5.6569569,0.173123814684367,101.819064334487
85039,Tintigny,Luxembourg,Wallonia,766,4340,81.8819177871373,49.6820986,5.5185152,0.176497695852535,53.0031552421915
85045,Virton,Luxembourg,Wallonia,1677,11371,95.6254616766231,49.5677263,5.5329559,0.147480432679624,118.91184419536
85046,Habay,Luxembourg,Wallonia,1429,8510,103.514564064516,49.73558035,5.59325143252,0.167920094007051,82.2106539007987
85047,Rouvroy,Luxembourg,Wallonia,341,2108,28.0966672975255,49.539075,5.48971,0.161764705882353,75.0266918733687
91005,Anhée,Namur,Wallonia,1342,7172,66.028499055462,50.310778,4.8796936,0.187116564417178,108.619764232044
91013,Beauraing,Namur,Wallonia,1826,9260,174.62685379621,50.1105211,4.9576144,0.19719222462203,53.0273540334549
91015,Bièvre,Namur,Wallonia,611,3387,109.547573246757,49.9411216,5.0168496,0.180395630351343,30.9180742175891
91030,Ciney,Namur,Wallonia,3233,16822,147.869636973576,50.2949558,5.0974251,0.192188800380454,113.762367611723
91034,Dinant,Namur,Wallonia,2159,13300,100.047172566825,50.2608166,4.91242,0.162330827067669,132.937290068008
91054,Gedinne,Namur,Wallonia,938,4646,151.559766993517,49.9792667,4.9388966,0.201894102453724,30.6545733881917
91059,Hamois,Namur,Wallonia,1688,7383,76.5975431969334,50.3408694,5.1594475,0.228633346877963,96.3869034417749
91064,Havelange,Namur,Wallonia,1206,5293,104.731643974936,50.3870946,5.23958,0.227848101265823,50.5386891593788
91072,Houyet,Namur,Wallonia,927,5061,122.84705336807,50.1900646,5.0051364,0.183165382335507,41.1975693453259
91103,Onhaye,Namur,Wallonia,548,3247,65.6722903655108,50.2435657,4.840864,0.168771173390822,49.4424662506553
91114,Rochefort,Namur,Wallonia,2559,12648,166.342534187715,50.1725817,5.21403115114,0.202324478178368,76.0358741783201
91120,Somme-Leuze,Namur,Wallonia,1143,5880,95.2348779368047,50.336585,5.3669021,0.194387755102041,61.7420857503677
91141,Yvoir,Namur,Wallonia,1839,9105,57.1054677145516,50.3264425,4.8806618,0.201976935749588,159.441825177099
91142,Hastière,Namur,Wallonia,800,6068,56.5914243391996,50.1973562,4.8225541872,0.1318391562294,107.224726552727
91143,Vresse-sur-Semois,Namur,Wallonia,437,2540,101.40570720856,49.8729769,4.9340633,0.172047244094488,25.047899865991
92003,Andenne,Namur,Wallonia,5682,27669,86.110094964352,50.4900943,5.1043923,0.20535617478044,321.321211078149
92006,Assesse,Namur,Wallonia,1466,7193,78.5270846647788,50.3704203,5.0233625,0.203809259001807,91.5989690780693
92035,Eghezée,Namur,Wallonia,2969,16487,103.218131615786,50.5917416,4.9049523,0.180081276156972,159.729688397872
92045,Floreffe,Namur,Wallonia,1574,8161,39.123813309725,50.4348064,4.758878,0.192868521014582,208.594186241335
92048,Fosses-la-Ville,Namur,Wallonia,2095,10426,63.3054433837127,50.3959512,4.6978935,0.200939957797813,164.693578351627
92054,Gesves,Namur,Wallonia,1354,7247,65.0283031505172,50.4028535,5.0776175,0.186835932109839,111.443781382789
92087,Mettet,Namur,Wallonia,2586,13261,116.965292285943,50.3212094,4.6584949,0.195007917954905,113.375512862235
92094,Namen,Namur,Wallonia,19679,111603,175.927142338708,50.45620385,4.84931465199,0.176330385383905,634.370561110655
92097,Ohey,Namur,Wallonia,1023,5182,56.6749214086918,50.4359066,5.1238439,0.197414125820147,91.4337394953189
92101,Profondeville,Namur,Wallonia,2225,12157,50.3729324422144,50.3776473,4.8694363,0.183022127169532,241.33993020847
92114,Sombreffe,Namur,Wallonia,1753,8433,35.887242576835,50.5246589,4.6025925,0.207873829005099,234.9860115874
92137,Sambreville,Namur,Wallonia,5752,28318,34.2708220414817,50.4409806,4.6196692,0.203121689384844,826.300576208054
92138,Fernelmont,Namur,Wallonia,1613,8074,65.8210353630226,50.548118,4.9746742,0.199777062174882,122.665952540392
92140,Jemeppe-sur-Sambre,Namur,Wallonia,3619,19182,46.9431797875949,50.46299585,4.65459860124,0.188666458137838,408.621658924541
92141,La Bruyère,Namur,Wallonia,1825,9337,53.042481377072,50.557403,3.426992,0.195458926850166,176.02871806891
92142,Gembloux,Namur,Wallonia,4753,26239,96.4773952241552,50.5621964,4.69869330303,0.181142574031023,271.970443843725
93010,Cerfontaine,Namur,Wallonia,824,4998,83.4416882902842,50.1687764,4.4125932,0.164865946378551,59.898116905455304
93014,Couvin,Namur,Wallonia,2445,13800,206.967029105943,50.0524906,4.4955009,0.177173913043478,66.6772870036994
93018,Doische,Namur,Wallonia,500,2962,84.1204636639466,50.1357152,4.7458219,0.168804861580014,35.2114083896745
93022,Florennes,Namur,Wallonia,2111,11256,134.174586399969,50.2514227,4.6030187,0.187544420753376,83.8907001840598
93056,Philippeville,Namur,Wallonia,1811,9244,157.352005454388,50.195588,4.5449033,0.195910861099091,58.7472652369822
93088,Walcourt,Namur,Wallonia,3272,18355,123.642234063468,50.2532022,4.4347509,0.178262053936257,148.452510091155
93090,Viroinval,Namur,Wallonia,787,5677,121.216481812018,50.0516361,4.6270287,0.13862955786507,46.8335651648749
